continent,location,latitude,longitude,total_cases,total_deaths,new_cases,new_deaths
Africa,Algeria,28.033886,1.659626,84601697.0,2390873.0,265346.0,6860.0
Africa,Angola,-11.202692,17.873887,22659972.0,533094.0,98855.0,1903.0
Africa,Benin,9.30769,2.315834,6870254.0,59418.0,26784.0,163.0
Africa,Botswana,-22.328474,24.684866,54799553.0,665784.0,263950.0,2619.0
Africa,Burkina Faso,12.238333,-1.561593,6754555.0,104814.0,20751.0,375.0
Africa,Burundi,-3.373056,29.918886,5974968.0,9761.0,38209.0,38.0
Africa,Cameroon,7.369722,12.354722,38929247.0,649745.0,119322.0,1926.0
Africa,Cape Verde,16.002082,-24.013197,15363824.0,133248.0,55904.0,402.0
Africa,Central African Republic,6.611111,20.939444,4882006.0,51413.0,14320.0,113.0
Africa,Chad,15.454166,18.732207,2460161.0,92063.0,7260.0,190.0
Africa,Comoros,-11.875001,43.872219,2023218.0,62269.0,8051.0,161.0
Africa,Djibouti,11.825138,42.590275,6109753.0,74941.0,15564.0,189.0
Africa,Egypt,26.820553,30.802498,146863321.0,8223709.0,493658.0,24257.0
Africa,Equatorial Guinea,1.650801,10.267895,5355907.0,73067.0,15894.0,183.0
Africa,Eritrea,15.179384,39.782334,2578727.0,16561.0,9718.0,103.0
Africa,Ethiopia,9.145,40.489673,142997852.0,2279372.0,469095.0,7482.0
Africa,Gabon,-0.803689,11.609444,13893382.0,90691.0,47564.0,303.0
Africa,Gambia,13.443182,-15.310139,3934036.0,124603.0,12063.0,365.0
Africa,Ghana,7.946527,-1.023194,56708991.0,463267.0,160667.0,1444.0
Africa,Guinea,9.945587,-9.696645,13394905.0,124817.0,36427.0,440.0
Africa,Guinea-Bissau,11.803749,-15.180413,2652431.0,50894.0,8039.0,168.0
Africa,Kenya,-0.023559,37.906193,98902227.0,1857395.0,323129.0,5641.0
Africa,Lesotho,-29.609988,28.233608,7558267.0,197308.0,32716.0,697.0
Africa,Liberia,6.428055,-9.429499,2192348.0,97232.0,7513.0,294.0
Africa,Libya,26.3351,17.228331,124536594.0,1823574.0,499132.0,6324.0
Africa,Madagascar,-18.766947,46.869107,19983691.0,391020.0,63798.0,1373.0
Africa,Malawi,-13.254308,34.301525,22787001.0,759234.0,85461.0,2620.0
Africa,Mali,17.570692,-3.996166,7630751.0,257832.0,30402.0,725.0
Africa,Mauritania,21.00789,-10.940835,14763905.0,312868.0,58656.0,981.0
Africa,Mauritius,-20.348404,57.552152,12488577.0,100242.0,169938.0,904.0
Africa,Morocco,31.791702,-7.09262,351874812.0,5571408.0,1161848.0,16029.0
Africa,Mozambique,-18.665695,35.529562,53245824.0,601226.0,225175.0,2232.0
Africa,Namibia,-22.95764,18.49041,43707761.0,995163.0,157366.0,4015.0
Africa,Niger,17.607789,8.081666,2943170.0,109354.0,8778.0,307.0
Africa,Nigeria,9.081999,8.675277,92673407.0,1252495.0,254777.0,3143.0
Africa,Rwanda,-1.940278,29.873888,29594442.0,361523.0,129569.0,1459.0
Africa,Saint Helena,-24.143474,-10.030696,2018.0,0.0,4.0,0.0
Africa,Senegal,14.497401,-14.452362,27676732.0,671764.0,85775.0,1962.0
Africa,Seychelles,-4.679574,55.491977,7307559.0,33791.0,39610.0,163.0
Africa,Sierra Leone,8.460555,-11.779889,2840623.0,60446.0,7666.0,125.0
Africa,Somalia,5.152149,46.199616,8016383.0,400961.0,26400.0,1360.0
Africa,South Africa,-30.559482,22.937506,1163507058.0,33876767.0,3669837.0,99333.0
Africa,Sudan,12.862807,30.217636,19929124.0,1369616.0,61656.0,4865.0
Africa,Tanzania,-6.369028,34.888822,5145287.0,132183.0,33726.0,800.0
Africa,Togo,8.619543,0.824782,8735462.0,83563.0,36843.0,272.0
Africa,Tunisia,33.886917,9.537499,239749300.0,8017800.0,1017907.0,27989.0
Africa,Uganda,1.373333,32.290275,42238261.0,869116.0,163559.0,3599.0
Africa,Western Sahara,24.215527,-12.885834,0.0,0.0,0.0,0.0
Africa,Zambia,-13.133897,27.849332,75515374.0,1168110.0,314641.0,3960.0
Africa,Zimbabwe,-19.015438,29.154857,47021227.0,1427132.0,240349.0,5400.0
Asia,Afghanistan,33.93911,67.709953,59288953.0,2582957.0,175533.0,7636.0
Asia,Armenia,40.069099,45.038189,126755296.0,2542114.0,421592.0,8562.0
Asia,Azerbaijan,40.143105,47.576927,197731338.0,2656897.0,789883.0,9558.0
Asia,Bahrain,25.930414,50.637772,120035962.0,515043.0,532265.0,1518.0
Asia,Bangladesh,23.684994,90.356331,578221115.0,9402579.0,1948471.0,29097.0
Asia,Bhutan,27.514162,90.433601,1193532.0,966.0,15946.0,7.0
Asia,Brunei,4.535277,114.727669,3576557.0,17421.0,100191.0,155.0
Asia,Cambodia,12.565679,104.990963,29301856.0,629380.0,133263.0,3043.0
Asia,China,35.86166,104.195397,68697722.0,3406510.0,111609.0,4640.0
Asia,Georgia,42.315407,43.356892,265793199.0,3475746.0,1629930.0,16456.0
Asia,Hong Kong,22.396428,114.109497,10844988.0,122757.0,551257.0,2869.0
Asia,India,20.593684,78.96288,13046688311.0,172527639.0,42980067.0,508086.0
Asia,Indonesia,-0.789275,113.921327,1370432000.0,42669260.0,5826589.0,151135.0
Asia,Iran,32.427908,53.688046,1904432603.0,48427081.0,7107167.0,138433.0
Asia,Iraq,33.223191,43.679291,727819012.0,9907775.0,2310539.0,25082.0
Asia,Israel,31.046051,34.851612,583691569.0,3378932.0,3692204.0,10330.0
Asia,Japan,36.204824,138.252924,607519519.0,6557070.0,5549753.0,25530.0
Asia,Jordan,30.585164,36.238414,361809569.0,4311977.0,1654787.0,13882.0
Asia,Kazakhstan,48.019573,66.923684,335412507.0,5205221.0,1451802.0,19264.0
Asia,Kuwait,29.31166,47.481766,175593212.0,989085.0,624573.0,2549.0
Asia,Kyrgyzstan,41.20438,74.766098,71507477.0,1155520.0,200671.0,3412.0
Asia,Laos,19.85627,102.495496,15745754.0,50899.0,144759.0,634.0
Asia,Lebanon,33.854721,35.862285,267277987.0,3302396.0,1081463.0,10176.0
Asia,Malaysia,4.210484,101.975766,648558575.0,6526217.0,3711199.0,33497.0
Asia,Maldives,3.202778,73.22068,32706054.0,84957.0,173666.0,297.0
Asia,Mongolia,46.862496,103.846656,135394604.0,413916.0,914016.0,2177.0
Asia,Nepal,28.394857,84.124008,291592331.0,3645496.0,977710.0,11949.0
Asia,Oman,21.512583,55.923255,129235887.0,1532677.0,385769.0,4249.0
Asia,Pakistan,30.375321,69.345116,511524684.0,11147832.0,1516789.0,30291.0
Asia,Philippines,12.879721,121.774017,866407793.0,14553457.0,3669294.0,57184.0
Asia,Qatar,25.354826,51.183884,125431054.0,264437.0,358694.0,672.0
Asia,Saudi Arabia,23.885942,45.079162,283571737.0,4291073.0,748121.0,9013.0
Asia,Singapore,1.352083,103.819836,81051476.0,127790.0,885593.0,1110.0
Asia,South Korea,35.907757,127.766922,197187291.0,1414217.0,5539649.0,9646.0
Asia,Sri Lanka,7.873054,80.771797,150597345.0,3180006.0,654336.0,16361.0
Asia,Syria,34.802075,38.996815,14508393.0,910793.0,55193.0,3105.0
Asia,Taiwan,23.69781,120.960515,5005250.0,226789.0,21001.0,853.0
Asia,Tajikistan,38.861034,71.276093,8777371.0,63466.0,17786.0,125.0
Asia,Thailand,15.870032,100.992541,453943356.0,4223282.0,3111871.0,23514.0
Asia,Turkey,38.963745,35.243322,2943052699.0,26265599.0,13635656.0,95954.0
Asia,Turkmenistan,38.969719,59.556278,0.0,0.0,0.0,0.0
Asia,United Arab Emirates,23.424076,53.847818,292454393.0,875852.0,883985.0,2302.0
Asia,Uzbekistan,41.377491,64.585262,71136043.0,515120.0,237045.0,1637.0
Asia,Vietnam,14.058324,108.277199,310889376.0,5501312.0,5042036.0,41271.0
Asia,Yemen,15.552727,48.516388,3539201.0,729415.0,11782.0,2138.0
Europe,Albania,41.153332,20.168331,71991457.0,1188032.0,272412.0,3483.0
Europe,Andorra,42.546245,1.601554,8088537.0,70080.0,38794.0,152.0
Europe,Austria,47.516231,14.550072,409521778.0,5095519.0,2972647.0,15127.0
Europe,Belarus,53.709807,27.953389,233158694.0,1780643.0,934187.0,6608.0
Europe,Belgium,50.503887,4.469936,673577081.0,13870568.0,3609122.0,30430.0
Europe,Bosnia and Herzegovina,43.915886,17.679076,105009824.0,4503468.0,372817.0,15621.0
Europe,Bulgaria,42.733883,25.48583,234970952.0,9189510.0,1107888.0,35995.0
Europe,Croatia,45.1,15.2,209886496.0,3960515.0,1067589.0,15276.0
Europe,Cyprus,35.126413,33.429859,50074772.0,204664.0,341383.0,886.0
Europe,Denmark,56.26392,9.501785,253789829.0,1362373.0,2910722.0,4954.0
Europe,Estonia,58.595272,25.013607,74766094.0,588286.0,523279.0,2329.0
Europe,Finland,61.92411,25.748151,78122642.0,607649.0,703052.0,2573.0
Europe,France,46.227638,2.213749,3601366029.0,56596953.0,23710590.0,140229.0
Europe,Germany,51.165691,10.451526,2256232595.0,41993083.0,16589967.0,125148.0
Europe,Gibraltar,36.137741,-5.345374,2833496.0,39949.0,15922.0,101.0
Europe,Greece,39.074208,21.824312,321165667.0,6221460.0,2561503.0,26366.0
Europe,Guernsey,49.465691,-2.585278,0.0,0.0,0.0,0.0
Europe,Hungary,47.162494,19.503304,397890680.0,12932796.0,1809917.0,44549.0
Europe,Iceland,64.963051,-19.020835,9704717.0,18448.0,153245.0,77.0
Europe,Ireland,53.41291,-8.24389,209307854.0,2643149.0,1337082.0,6597.0
Europe,Isle of Man,54.236107,-4.548056,3177805.0,24992.0,23962.0,80.0
Europe,Italy,41.87194,12.56738,2365867942.0,64202029.0,13159490.0,156388.0
Europe,Jersey,49.214439,-2.13125,0.0,0.0,0.0,0.0
Europe,Kosovo,42.602636,20.902977,59559207.0,1163864.0,226729.0,3122.0
Europe,Latvia,56.879635,24.603189,84787846.0,1265416.0,719813.0,5384.0
Europe,Liechtenstein,47.166,9.555373,1964887.0,27369.0,13475.0,79.0
Europe,Lithuania,55.169438,23.881275,161513321.0,2231327.0,944968.0,8589.0
Europe,Luxembourg,49.815273,6.129583,39788960.0,392679.0,191178.0,1002.0
Europe,Malta,35.937496,14.375416,16917028.0,196268.0,72310.0,614.0
Europe,Moldova,47.411631,28.369885,137908256.0,3262346.0,506222.0,10719.0
Europe,Monaco,43.750298,7.412841,1610291.0,14895.0,9666.0,54.0
Europe,Montenegro,42.708678,19.37439,56827458.0,801150.0,231227.0,2691.0
Europe,Netherlands,52.132633,5.291266,1022658560.0,9584363.0,7005830.0,21763.0
Europe,Norway,60.472024,8.468946,116905407.0,462577.0,1333793.0,1755.0
Europe,Poland,51.919438,19.145136,1386005265.0,33023582.0,5774938.0,113002.0
Europe,Portugal,39.399872,-8.224454,541810315.0,8052355.0,3367630.0,21267.0
Europe,Romania,45.943161,24.96676,618596692.0,17664494.0,2781086.0,64156.0
Europe,Russia,61.52401,105.318756,3391148191.0,83363601.0,16893631.0,351124.0
Europe,San Marino,43.94236,12.457777,2896763.0,50698.0,14629.0,112.0
Europe,Serbia,44.016521,21.005859,411212264.0,3794172.0,1932814.0,15515.0
Europe,Slovakia,48.669026,19.699024,410678078.0,5339160.0,2231352.0,18786.0
Europe,Slovenia,46.151241,14.995463,151937832.0,2108984.0,909863.0,6382.0
Europe,Spain,40.463667,-3.74922,2319223652.0,43800035.0,11266346.0,101733.0
Europe,Sweden,60.128161,18.643501,529313147.0,7646033.0,2462952.0,17949.0
Europe,Switzerland,46.818188,8.227512,449872194.0,5445642.0,3008537.0,13364.0
Europe,Ukraine,48.379433,31.16558,1206914536.0,27999742.0,5040518.0,112459.0
Europe,United Kingdom,55.378051,-3.435973,3568300245.0,68899782.0,18588857.0,161507.0
North America,Anguilla,18.220554,-63.068615,287556.0,778.0,2574.0,10.0
North America,Antigua and Barbuda,17.060816,-61.796428,1149527.0,28195.0,7463.0,135.0
North America,Aruba,12.52111,-69.968338,7082218.0,61107.0,33732.0,213.0
North America,Bahamas,25.03428,-77.39628,8270778.0,197086.0,33228.0,771.0
North America,Barbados,13.193887,-59.543198,6024084.0,49605.0,56551.0,323.0
North America,Belize,17.189877,-88.49765,10188042.0,191772.0,56976.0,656.0
North America,Bermuda,32.321384,-64.75737,1822464.0,26437.0,11743.0,123.0
North America,British Virgin Islands,18.420695,-64.639968,881996.0,10081.0,6091.0,62.0
North America,Canada,56.130366,-106.346771,744730645.0,14285858.0,3356440.0,37207.0
North America,Cayman Islands,19.513469,-80.566956,1649659.0,2358.0,19811.0,18.0
North America,Costa Rica,9.748917,-83.753428,198413116.0,2417259.0,820445.0,8142.0
North America,Cuba,21.521757,-77.781167,222094221.0,1829828.0,1074469.0,8503.0
North America,Dominica,15.414999,-61.370976,1274712.0,7054.0,11496.0,62.0
North America,Dominican Republic,18.735693,-70.162651,171258538.0,2005335.0,576220.0,4372.0
North America,El Salvador,13.794185,-88.89653,45342184.0,1367568.0,156456.0,4093.0
North America,Greenland,71.706936,-42.604303,797707.0,546.0,11833.0,21.0
North America,Grenada,12.262776,-61.604171,1466089.0,33954.0,13707.0,216.0
North America,Guatemala,15.783471,-90.230759,196197962.0,5411699.0,798400.0,17119.0
North America,Haiti,18.971187,-72.285215,10148640.0,259814.0,30430.0,904.0
North America,Honduras,15.199999,-86.241905,139716490.0,3728453.0,414734.0,10813.0
North America,Jamaica,18.109581,-77.297508,29487875.0,657243.0,128246.0,2835.0
North America,Mexico,23.634501,-102.552784,1511729553.0,121260101.0,5583993.0,313347.0
North America,Montserrat,16.742498,-62.187366,22860.0,715.0,164.0,2.0
North America,Nicaragua,12.865416,-85.207229,5899772.0,112966.0,18203.0,226.0
North America,Panama,8.537981,-80.782127,216182993.0,3356549.0,758613.0,8125.0
North America,Saint Kitts and Nevis,17.357822,-62.782998,696887.0,5120.0,5537.0,42.0
North America,Saint Lucia,13.909444,-60.978893,3872405.0,66473.0,22811.0,364.0
North America,Saint Pierre and Miquelon,46.941936,-56.27111,66671.0,37.0,1222.0,1.0
North America,Saint Vincent and the Grenadines,12.984305,-61.287228,1512751.0,15179.0,9865.0,106.0
North America,Trinidad and Tobago,10.691803,-61.222503,20716285.0,582937.0,131378.0,3669.0
North America,Turks and Caicos Islands,21.694025,-71.797928,1356836.0,9727.0,5868.0,36.0
North America,United States,37.09024,-95.712891,19919516571.0,332451233.0,79406601.0,963819.0
Oceania,Australia,-25.274398,133.775136,197268930.0,827734.0,3525635.0,5523.0
Oceania,Cook Islands,-21.236736,-159.777671,390.0,0.0,2.0,0.0
Oceania,Fiji,-16.578193,179.414413,12286522.0,148737.0,64060.0,836.0
Oceania,French Polynesia,-17.679742,-149.406843,14982859.0,160792.0,69595.0,643.0
Oceania,Kiribati,-3.370417,-168.734039,93089.0,260.0,3006.0,13.0
Oceania,Marshall Islands,7.131474,171.184478,2129.0,0.0,8.0,0.0
Oceania,Nauru,-0.522778,166.931503,0.0,0.0,0.0,0.0
Oceania,New Caledonia,-20.904305,165.618042,3206624.0,44074.0,59164.0,304.0
Oceania,New Zealand,-40.900557,174.885971,5503400.0,20148.0,286755.0,65.0
Oceania,Niue,-19.054445,-169.867233,0.0,0.0,0.0,0.0
Oceania,Palau,7.51498,134.58252,134090.0,137.0,3888.0,6.0
Oceania,Papua New Guinea,-6.314993,143.95555,8536871.0,114071.0,41549.0,639.0
Oceania,Samoa,-13.759029,-172.104629,2716.0,0.0,41.0,0.0
Oceania,Solomon Islands,-9.64571,160.156194,216872.0,2728.0,8494.0,118.0
Oceania,Tokelau,-8.967363,-171.855881,0.0,0.0,0.0,0.0
Oceania,Tonga,-21.178986,-175.198242,11565.0,0.0,1220.0,0.0
Oceania,Tuvalu,-7.109535,177.64933,0.0,0.0,0.0,0.0
Oceania,Vanuatu,-15.376706,166.959158,2217.0,323.0,95.0,1.0
Oceania,Wallis and Futuna,-13.768752,-177.156097,162135.0,2366.0,454.0,7.0
South America,Argentina,-38.416097,-63.616672,2132984176.0,43778767.0,8955458.0,126955.0
South America,Bolivia,-16.290154,-63.588653,223029217.0,8324073.0,896315.0,21470.0
South America,Brazil,-14.235004,-51.92528,8857841633.0,239750544.0,29093019.0,653767.0
South America,Chile,-35.675147,-71.542969,750810382.0,16268489.0,3230793.0,43496.0
South America,Colombia,4.570868,-74.297333,1935862460.0,49178276.0,6074155.0,139189.0
South America,Ecuador,-1.831239,-78.183406,231547433.0,13377354.0,855233.0,22678.0
South America,Guyana,4.860416,-58.93018,12157277.0,285633.0,63105.0,1224.0
South America,Paraguay,-23.442503,-58.443832,173806560.0,5265259.0,645020.0,18510.0
South America,Peru,-9.189967,-75.015152,1036150572.0,92042497.0,3528939.0,211961.0
South America,Suriname,3.919305,-56.027783,14744577.0,306803.0,78654.0,1319.0
South America,Uruguay,-32.522779,-55.765835,145362452.0,1930452.0,859186.0,7069.0
South America,Venezuela,6.42375,-66.58973,144831023.0,1620650.0,517164.0,5658.0
